[
  {
    "id": 0,
    "name": "Heian Jingu",
    "pos": {
      "lat": 35.01683774677658,
      "lng": 135.7823037079702
    },
    "area": [
      {
        "lat": 35.01509176125354,
        "lng": 135.78044016115805
      },
      {
        "lat": 35.01509424486935,
        "lng": 135.78461893855
      },
      {
        "lat": 35.017076146263605,
        "lng": 135.78458558111666
      },
      {
        "lat": 35.017329468553804,
        "lng": 135.78169864631664
      },
      {
        "lat": 35.01731953435702,
        "lng": 135.78038557618694
      }
    ],
    "type": [
      "temple"
    ],
    "article": 1
  },
  {
    "id": 1,
    "name": "Kiyomizu-dera",
    "pos": {
      "lat": 34.99602810200204,
      "lng": 135.784878628573
    },
    "type": [
      "temple"
    ],
    "article": 2
  },
  {
    "id": 2,
    "name": "Nanzenji-temple",
    "pos": {
      "lat": 35.0127240620144,
      "lng": 135.79452055077542
    },
    "type": [
      "temple"
    ],
    "article": 3
  },
  {
    "id": 3,
    "name": "Kinkaku-ji",
    "pos": {
      "lat": 35.03966329408966,
      "lng": 135.72937327551838
    },
    "type": [
      "temple"
    ],
    "article": 4
  },
  {
    "id": 4,
    "name": "Tanaka-jinja",
    "pos": {
      "lat": 34.928,
      "lng": 135.741
    },
    "type": [
      "temple"
    ],
    "article": 5
  },
  {
    "id": 5,
    "name": "Ginkaku-ji",
    "pos": {
      "lat": 35.02702008870461,
      "lng": 135.7982054406825
    },
    "type": [
      "temple"
    ],
    "article": 6
  },
  {
    "id": 6,
    "name": "Kyoto-City",
    "pos": {
      "lat": 35.0116,
      "lng": 135.7681
    },
    "type": [
      "area"
    ],
    "article": 0
  }
]